{
  "store":[
    {
      "id":"01",
      "name":"勝王",
      "address":"104台北市中山區林森北路306號",
      "businessHours":"w1-w5 11:30-14:00 17:00-20:30 weekend 11:30-14:00 17:00-20:30",
      "soupBase":["醬油","豚骨"],
      "web":"https://www.facebook.com/ramenkatsuo",
      "rank":["2021"]
    },{
      "id":"02",
      "name":"雞吉君",
      "address":"114台北市內湖區環山路一段33號",
      "businessHours":"w3-weekend 11:30-14:00 17:30-21:00",
      "soupBase":["雞白","醬油"],
      "web":"https://www.facebook.com/people/%E9%B6%8F%E5%90%89%E5%90%9B-%E3%81%A8%E3%82%8A%E3%82%88%E3%81%97%E3%81%8F%E3%82%93-%E3%82%89%E3%83%BC%E3%82%81%E3%82%93%E9%9B%9E%E7%99%BD%E6%B9%AF%E5%B0%88%E9%96%80/100030003955573/",
      "rank":["2021","2020","2019"]
    },{
      "id":"03",
      "name":"山下公園",
      "address":"403台中市西區健行路1049號金典綠園道商場三樓",
      "businessHours":"w2-w5 11:30-14:00 16:30-20:30 weekend 11:30-14:30 16:30-20:30",
      "soupBase":["醬油","鹽味"],
      "flavor":"橫濱家系",
      "web":"https://zh-tw.facebook.com/yamashita.ramen/",
      "rank":["2021","2020","2019"]
    },{
      "id":"04",
      "name":"隱家拉麵-赤峰店",
      "address":"103台北市大同區南京西路25巷28號",
      "businessHours":"11:30-14:00 16:30-22:00",
      "menu":"https://www.facebook.com/110911113953386/photos/p.535953391449154/535953391449154",
      "soupBase":["雞白","醬油","豚骨"],
      "web":"https://www.facebook.com/profile.php?id=100064162714434",
      "rank":["2021","2020"]
    },{
      "id":"05",
      "name":"隱家拉麵-士林店",
      "address":"111台北市士林區中山北路五段505巷22號",
      "businessHours":"11:30-14:00 16:30-22:00",
      "menu":"https://www.facebook.com/110911113953386/photos/p.535953391449154/535953391449154",
      "soupBase":["雞白","醬油","豚骨"],
      "web":"https://www.facebook.com/kakuregaramen",
      "rank":["2021","2020"]
    },{
      "id":"06",
      "name":"隱家拉麵-芝山店",
      "address":" 11158台北市士林區福華路140號1F",
      "businessHours":"11:30-13:45 16:30-21:45",
      "menu":"https://www.facebook.com/110911113953386/photos/p.535953391449154/535953391449154",
      "soupBase":["雞白","醬油","豚骨"],
      "web":"https://www.facebook.com/profile.php?id=100064270351973",
      "rank":["2021","2020"]
    },{
      "id":"07",
      "name":"隱家拉麵-公館店",
      "address":"10090台北市中正區羅斯福路四段52巷1之1號",
      "businessHours":"11:30-14:00 16:30-22:00",
      "menu":"https://www.facebook.com/110911113953386/photos/p.535953391449154/535953391449154",
      "soupBase":["雞白","醬油","豚骨"],
      "web":"https://www.facebook.com/profile.php?id=100078349202894",
      "rank":["2021","2020"]
    },{
      "id":"08",
      "name":"柑橘Shinn-Soba",
      "address":"106台北市大安區仁愛路四段228-6號",
      "businessHours":"11:30-14:00 17:00-20:30",
      "menu":"https://www.facebook.com/sobashinncitrus/photos/p.1838366786321302/1838366786321302",
      "soupBase":["鹽味","醬油","味噌","咖哩"],
      "web":"https://zh-tw.facebook.com/sobashinncitrus/",
      "rank":["2021","2020","2019"]
    },{
      "id":"09",
      "name":"柑橘Shinn-鴨蔥",
      "address":"110台北市信義區嘉興街315號",
      "businessHours":"11:30-14:00 17:00-20:30",
      "menu":"https://www.facebook.com/sobashinncitrus/photos/p.1838371052987542/1838371052987542",
      "soupBase":["鹽味","醬油","味噌","咖哩"],
      "web":"https://www.facebook.com/citrusshinnduck",
      "rank":["2021","2020","2019"]
    },{
      "id":"10",
      "name":"柑橘Shinn-魚水",
      "address":"110台北市信義區基隆路一段428號",
      "businessHours":"11:30-14:00 17:00-20:30",
      "soupBase":["鹽味","醬油","味噌","咖哩"],
      "web":"https://www.facebook.com/profile.php?id=100075681263536",
      "rank":["2021","2020","2019"]
    },{
      "id":"11",
      "name":"五之神製作所",
      "address":"110台北市信義區忠孝東路四段553巷6弄6號",
      "businessHours":"11:30-15:00 17:00-21:00",
      "menu":"https://www.facebook.com/gonokamitw/photos/p.3188732191411408/3188732191411408",
      "soupBase":["鮮蝦"],
      "flavor":"五之神",
      "web":"https://www.facebook.com/gonokamitw/",
      "rank":["2021","2020","2019"]
    },{
      "id":"12",
      "name":"拉麵公子",
      "address":"104台北市中山區八德路二段279號",
      "businessHours":"11:30-13:30 17:30-20:30",
      "soupBase":["鹽味","醬油","雞白"],
      "web":"https://zh-tw.facebook.com/TheRamenBoy/",
      "rank":["2021"]
    },{
      "id":"13",
      "name":"有囍ラーメン中山店",
      "address":"400台中市中區中山路82號",
      "businessHours":"11:30-14:00 16:30-21:00 w2公休",
      "soupBase":["味噌","雞白"],
      "web":"https://www.facebook.com/yoshiramentaichung/",
      "rank":["2020"]
    },{
      "id":"14",
      "name":"辰拉麵",
      "address":"234新北市永和區文化路110號1樓",
      "businessHours":"w1-w5 17:00-20:30",
      "flavor":"https://www.facebook.com/photo.php?fbid=489890766484575&set=pb.100063909675756.-2207520000.&type=3",
      "soupBase":["醬油","豚骨"],
      "web":"https://zh-tw.facebook.com/people/%E8%BE%B0%E6%8B%89%E9%BA%B5/100063909675756/",
      "rank":["2021"]
    },{
      "id":"15",
      "name":"三冬麵舖",
      "address":"330桃園市桃園區同德十街17號",
      "businessHours":"w3-w5 16:50-19:50 w6 11:30-13:30 16:50-19:50",
      "soupBase":["醬油","雞白"],
      "web":"https://zh-tw.facebook.com/people/%E4%B8%89%E5%86%AC%E9%BA%B5%E8%88%96/100064279171484/",
      "rank":["2021"]
    },{
      "id":"16",
      "name":"辣麻味噌拉麵 鬼金棒",
      "address":"10491台北市中山區中山北路一段94號",
      "businessHours":"w1-w5 12:00-14:00 17:00-20:30 weekend 12:00-15:00 17:00-20:30",
      "flavor":"https://www.facebook.com/kikanbotw/photos/2372284346290799",
      "soupBase":["味噌"],
      "web":"https://zh-tw.facebook.com/kikanbotw/",
      "rank":["2020","2019"]
    },{
      "id":"17",
      "name":"辣麻味噌拉麵 鬼金棒 松江南京店",
      "address":"10491台北市中山區松江路123巷8-2號",
      "businessHours":"11:30-14:00 17:00-20:30",
      "flavor":"https://www.facebook.com/kikanbotw/photos/2372284346290799",
      "soupBase":["味噌"],
      "web":"https://zh-tw.facebook.com/kikanbotw/",
      "rank":["2020","2019"]
    },{
      "id":"18",
      "name":"OKAERI お帰り你回來啦",
      "address":"106台北市大安區延吉街60號",
      "businessHours":"w3-weekend 11:30-14:00 17:30-21:00",
      "soupBase":["豚骨"],
      "web":"https://zh-tw.facebook.com/okaeriramen/",
      "rank":["2020","2019"]
    },{
      "id":"19",
      "name":"山嵐拉麵-古亭店",
      "address":"106台北市大安區杭州南路二段75號",
      "businessHours":"11:30-14:15 17:15-20:45",
      "soupBase":["豚骨"],
      "web":"https://zh-tw.facebook.com/yamaarashi.taiwan/",
      "rank":["2019"]
    },{
      "id":"20",
      "name":"山嵐拉麵-大安店",
      "address":"106台北市大安區復興南路二段84號之5",
      "businessHours":"11:45-13:45 17:15-20:30",
      "soupBase":["豚骨"],
      "web":"https://www.facebook.com/profile.php?id=100063801825158",
      "rank":["2019"]
    },{
      "id":"21",
      "name":"山嵐拉麵-公館店",
      "address":"100台北市中正區羅斯福路四段136巷1弄13號",
      "businessHours":"w1-w5 11:45-13:45 17:15-20:30 weekend 11:30-14:30 17:15-20:45",
      "soupBase":["豚骨"],
      "web":"https://www.facebook.com/profile.php?id=100054440923161",
      "rank":["2019"]
    },{
      "id":"22",
      "name":"山嵐拉麵-林森八條店",
      "address":"104台北市中山區林森北路133巷7號",
      "businessHours":"12:00-13:30 17:15-20:30 w1公休",
      "soupBase":["豚骨"],
      "web":"https://www.facebook.com/profile.php?id=100063705170116",
      "rank":["2019"]
    },{
      "id":"23",
      "name":"山嵐拉麵-板橋新埔店",
      "address":"220新北市板橋區民生路三段122號",
      "businessHours":"12:00-13:30 17:15-20:30 w4公休",
      "soupBase":["豚骨"],
      "web":"https://www.facebook.com/profile.php?id=100063781160939",
      "rank":["2019"]
    },{
      "id":"24",
      "name":"麵屋壹慶",
      "address":"10491台北市中山區雙城街32巷2號",
      "businessHours":"12:00-14:00 17:00-21:00 w1.7公休",
      "soupBase":["豚骨","醬油"],
      "flavor":"泡系",
      "web":"https://zh-tw.facebook.com/ichi09102018/",
      "rank":["2019"]
    },{
      "id":"25",
      "name":"麵屋壹の穴 ICHI",
      "address":"106台北市大安區延吉街137巷22號",
      "businessHours":"11:30-15:00 17:30-21:00 w1公休",
      "soupBase":["魚介","醬油","豚骨"],
      "flavor":"二郎",
      "web":"https://zh-tw.facebook.com/Topichiramen/",
      "rank":["2019"]
    },{
      "id":"26",
      "name":"道樂商店",
      "address":"108台北市萬華區成都路27巷12號",
      "businessHours":"12:00-14:00 17:00-21:00",
      "soupBase":["雞白","醬油","豚骨"],
      "web":"https://www.facebook.com/dourakubaiten/"
    },{
      "id":"27",
      "name":"屯京拉麵-台北站前店",
      "address":"100台北市中正區忠孝西路一段38號B1",
      "businessHours":"11:00-22:00",
      "menu":"https://www.facebook.com/tonchin1/photos/p.4593221244096828/4593221244096828",
      "soupBase":["味噌","豚骨"],
      "flavor":"東京豚骨",
      "web":"https://zh-tw.facebook.com/tonchin1/"
    },{
      "id":"28",
      "name":"屯京拉麵-中山店",
      "address":"10491台北市中山區中山北路一段141號",
      "businessHours":"11:00-22:30",
      "menu":"https://www.facebook.com/tonchin1/photos/p.4593221244096828/4593221244096828",
      "soupBase":["味噌","豚骨"],
      "flavor":"東京豚骨",
      "web":"https://zh-tw.facebook.com/tonchin1/"
    },{
      "id":"29",
      "name":"屯京拉麵-敦化南路店",
      "address":"106台北市大安區敦化南路一段187巷36號",
      "businessHours":"11:00-14:00 17:00-21:00",
      "menu":"https://www.facebook.com/tonchin1/photos/p.4593221244096828/4593221244096828",
      "soupBase":["味噌","豚骨"],
      "flavor":"東京豚骨",
      "web":"https://zh-tw.facebook.com/tonchin1/"
    },{
      "id":"30",
      "name":"屯京拉麵-新光三越A8",
      "address":"110台北市信義區松高路12號號 B2",
      "businessHours":"11:00-21:30",
      "menu":"https://www.facebook.com/tonchin1/photos/p.4593221244096828/4593221244096828",
      "soupBase":["味噌","豚骨"],
      "flavor":"東京豚骨",
      "web":"https://zh-tw.facebook.com/tonchin1/"
    },{
      "id":"31",
      "name":"屯京拉麵-三井outlet",
      "address":"244新北市林口區文化三路一段356號2樓",
      "businessHours":"11:00-22:00",
      "menu":"https://www.facebook.com/tonchin1/photos/p.4593221244096828/4593221244096828",
      "soupBase":["味噌","豚骨"],
      "flavor":"東京豚骨",
      "web":"https://zh-tw.facebook.com/tonchin1/"
    },{
      "id":"32",
      "name":"屯京拉麵-台中三井",
      "address":"435台中市梧棲區臺灣大道十段168號 MITSUI OUTLET PARK 台中港2F",
      "businessHours":"11:00-21:30",
      "menu":"https://www.facebook.com/tonchin1/photos/p.4593221244096828/4593221244096828",
      "soupBase":["味噌","豚骨"],
      "flavor":"東京豚骨",
      "web":"https://zh-tw.facebook.com/tonchin1/"
    },{
      "id":"33",
      "name":"屯京拉麵-新竹巨城店",
      "address":"300新竹市東區中央路229號 遠東巨城購物中心5樓",
      "businessHours":"11:00-21:00",
      "menu":"https://www.facebook.com/tonchin1/photos/p.4593221244096828/4593221244096828",
      "soupBase":["味噌","豚骨"],
      "flavor":"東京豚骨",
      "web":"https://zh-tw.facebook.com/tonchin1/"
    },{
      "id":"34",
      "name":"屯京拉麵-台南南紡店",
      "address":"701台南市東區中華東路一段366號 南紡購物中心5樓",
      "businessHours":"11:00-22:00",
      "menu":"https://www.facebook.com/tonchin1/photos/p.4593221244096828/4593221244096828",
      "soupBase":["味噌","豚骨"],
      "flavor":"東京豚骨",
      "web":"https://zh-tw.facebook.com/tonchin1/"
    },{
      "id":"35",
      "name":"屯京拉麵-高雄夢時代",
      "address":"801高雄市前鎮區中華五路789號 夢時代購物中心B1F",
      "businessHours":"11:00-22:00",
      "menu":"https://www.facebook.com/tonchin1/photos/p.4593221244096828/4593221244096828",
      "soupBase":["味噌","豚骨"],
      "flavor":"東京豚骨",
      "web":"https://zh-tw.facebook.com/tonchin1/"
    }
  ]
}